City_ID,City,Lat,Lng,Max Temp,Humidity,Cloudiness,Wind Speed,Country,Date
0,lerwick,60.1545,-1.1494,13.0,73,100,13.04,GB,1691592767
1,maceio,-9.6658,-35.7353,27.69,69,75,5.14,BR,1691592861
2,kapa'a,22.0752,-159.319,27.18,81,100,8.75,US,1691592874
3,port-aux-francais,-49.35,70.2167,2.47,75,14,8.67,TF,1691592875
4,petropavlovsk-kamchatsky,53.0452,158.6483,13.33,77,0,4.0,RU,1691592685
5,albany,42.6001,-73.9662,24.89,68,98,1.34,US,1691592634
6,iqaluit,63.7506,-68.5145,5.85,93,100,4.92,CA,1691592687
7,nuuk,64.1835,-51.7216,5.34,93,100,3.6,GL,1691592875
8,yellowknife,62.456,-114.3525,16.29,67,100,5.66,CA,1691592875
9,waitangi,-43.9535,-176.5597,9.34,80,59,3.13,NZ,1691592875
10,blackmans bay,-43.0167,147.3167,12.07,64,100,2.97,AU,1691592875
11,hawaiian paradise park,19.5933,-154.9731,22.73,97,100,2.06,US,1691592705
12,port elizabeth,-33.918,25.5701,18.39,72,75,8.75,ZA,1691592775
13,trinity beach,-16.7888,145.6968,20.56,97,75,4.63,AU,1691592876
14,colonia,50.9333,6.95,24.12,51,20,1.54,DE,1691592062
15,ciudad bolivar,8.1222,-63.5497,32.73,53,79,3.38,VE,1691592876
16,crane,31.3974,-102.3501,31.1,34,9,6.28,US,1691592876
17,ribeira grande,38.5167,-28.7,26.22,78,20,6.17,PT,1691592877
18,dudinka,69.4058,86.1778,21.46,64,60,4.58,RU,1691592877
19,wailua homesteads,22.0669,-159.378,26.44,81,100,8.75,US,1691592877
20,smithers,54.7804,-127.1743,13.18,100,75,1.03,CA,1691592612
21,haiku-pauwela,20.9219,-156.3051,24.47,73,0,6.69,US,1691592706
22,isafjordur,66.0755,-23.124,14.02,41,0,6.17,IS,1691592877
23,tura,25.5198,90.2201,24.15,97,100,1.14,IN,1691592878
24,shingu,33.7333,135.9833,26.63,94,79,5.2,JP,1691592878
25,aasiaat,68.7098,-52.8699,4.89,75,47,2.1,GL,1691592878
26,hadibu,12.65,54.0333,26.12,76,91,7.75,YE,1691592878
27,abashiri,44.0213,144.2697,18.4,99,100,1.91,JP,1691592878
28,edinburgh of the seven seas,-37.0676,-12.3116,11.58,59,41,8.67,SH,1691592878
29,kadaura,25.9833,79.85,31.2,61,100,3.06,IN,1691592878
30,mitchell,43.7094,-98.0298,19.85,88,0,0.0,US,1691592708
31,ancud,-41.8697,-73.8203,11.28,91,100,10.55,CL,1691592879
32,sur,22.5667,59.5289,34.1,49,10,5.65,OM,1691592879
33,hammerfest,70.6634,23.6821,26.25,57,20,3.6,NO,1691592879
34,adamstown,-25.066,-130.1015,20.24,64,60,11.46,PN,1691592682
35,longyearbyen,78.2186,15.6401,10.91,62,0,6.17,SJ,1691592879
36,thompson,55.7435,-97.8558,12.09,66,40,5.66,CA,1691592705
37,kone,-21.0595,164.8658,15.03,89,22,1.46,NC,1691592752
38,saipan,15.1355,145.701,27.39,100,40,3.09,MP,1691592880
39,kwang binh,17.4833,106.6,28.76,71,99,4.83,VN,1691592880
40,nadym,65.5333,72.5167,12.88,56,0,9.28,RU,1691592880
41,geraldton,-28.7667,114.6,10.23,87,40,1.54,AU,1691592595
42,bethel,41.3712,-73.414,26.38,63,0,4.63,US,1691592880
43,grytviken,-54.2811,-36.5092,-4.47,76,15,4.18,GS,1691592686
44,bredasdorp,-34.5322,20.0403,15.88,83,0,5.05,ZA,1691592880
45,klyuchi,52.2667,79.1667,23.86,37,37,2.24,RU,1691592880
46,egilsstadir,65.2653,-14.3948,9.95,66,75,7.2,IS,1691592881
47,tazacorte,28.629,-17.9293,26.54,83,20,5.66,ES,1691592881
48,bukene,-4.2333,32.8833,29.92,22,21,2.13,TZ,1691592881
49,puerto natales,-51.7236,-72.4875,2.95,91,100,0.3,CL,1691592681
50,puerto deseado,-47.7503,-65.8938,9.92,65,100,6.08,AR,1691592881
51,margaret river,-33.95,115.0667,11.12,70,82,1.02,AU,1691592881
52,selogiri,-7.7833,110.8667,21.87,81,92,0.75,ID,1691592881
53,kantunilkin,21.0917,-87.45,33.42,52,55,2.19,MX,1691592881
54,hermanus,-34.4187,19.2345,19.89,69,0,4.08,ZA,1691592697
55,byron bay,-28.65,153.6167,9.84,79,1,1.65,AU,1691592882
56,dinguiraye,11.3,-10.7167,29.1,65,82,0.09,GN,1691592882
57,vila velha,-20.3297,-40.2925,23.97,83,75,5.66,BR,1691592827
58,puerto ayora,-0.7393,-90.3518,25.98,86,96,2.24,EC,1691592882
59,ushuaia,-54.8,-68.3,3.81,87,0,2.57,AR,1691592650
60,olonkinbyen,70.9221,-8.7187,5.86,98,95,5.27,SJ,1691592882
61,uturoa,-16.7333,-151.4333,25.17,70,99,7.83,PF,1691592883
62,lospalos,-8.5186,127.0025,19.97,95,60,1.98,TL,1691592883
63,ust'-talovka,50.5493,81.85,20.1,42,33,2.45,KZ,1691592883
64,tiksi,71.6872,128.8694,16.45,53,17,3.42,RU,1691592883
65,yermakovskoye,53.2831,92.4003,16.94,72,38,1.07,RU,1691592883
66,recreo,-29.2818,-65.061,18.05,44,56,7.58,AR,1691592883
67,arraial do cabo,-22.9661,-42.0278,22.92,73,40,8.23,BR,1691592883
68,buchanan,5.8808,-10.0467,25.07,86,99,6.18,LR,1691592884
69,stanley,54.868,-1.6985,20.44,67,20,4.63,GB,1691592692
70,mlowo,-9.0,32.9833,22.3,36,3,5.47,TZ,1691592884
71,kapit,2.0167,112.9333,24.53,92,100,0.39,MY,1691592884
72,yemetsk,63.4721,41.7941,24.74,58,6,1.67,RU,1691592884
73,avarua,-21.2078,-159.775,22.03,78,75,7.2,CK,1691592695
74,suwayr,30.1171,40.3893,39.52,12,0,5.04,SA,1691592884
75,dakoro,14.5106,6.765,32.55,44,55,4.06,NE,1691592885
76,hanceville,34.0607,-86.7675,27.72,63,37,2.23,US,1691592885
77,qaqortoq,60.7167,-46.0333,8.21,66,26,3.62,GL,1691592885
78,sitia,35.2,26.0986,30.55,69,0,11.58,GR,1691592885
79,fort bragg,35.139,-79.006,28.69,55,0,3.6,US,1691592885
80,la sarre,48.8002,-79.1996,23.25,51,9,3.78,CA,1691592885
81,punta arenas,-53.15,-70.9167,4.05,88,100,4.06,CL,1691592885
82,talnakh,69.4865,88.3972,21.23,55,73,4.67,RU,1691592885
83,weno,7.4515,151.8468,26.97,94,100,3.09,FM,1691592886
84,east london,-33.0153,27.9116,18.52,68,100,5.14,ZA,1691592702
85,ilulissat,69.2167,-51.1,10.01,53,20,2.06,GL,1691592886
86,coquimbo,-29.9533,-71.3436,13.85,82,75,2.57,CL,1691592886
87,papatowai,-46.5619,169.4708,2.62,80,85,3.32,NZ,1691592886
88,usinsk,65.9939,57.5281,15.18,63,100,4.34,RU,1691592886
89,enewetak,11.3474,162.3373,28.15,78,97,5.71,MH,1691592698
90,amga,60.8953,131.9608,11.25,67,1,1.35,RU,1691592886
91,xining,36.6167,101.7667,18.6,82,90,0.64,CN,1691592887
92,sitangkai,4.6628,119.3928,28.74,74,68,2.66,PH,1691592887
93,larkird,35.4894,66.6641,23.47,37,2,2.88,AF,1691592887
94,maine soroa,13.2114,12.0241,31.66,48,92,3.65,NE,1691592887
95,obo,5.3998,26.4869,25.76,82,90,0.65,CF,1691592887
96,forio,40.7342,13.8646,29.16,65,78,6.71,IT,1691592887
97,namibe,-15.1961,12.1522,20.41,72,19,3.42,AO,1691592716
98,sinop,41.7711,34.8709,18.24,65,20,2.9,TR,1691592888
99,mount gambier,-37.8333,140.7667,9.33,91,66,5.09,AU,1691592888
100,davyd-haradok,52.0566,27.2161,18.81,67,100,2.02,BY,1691592888
101,kirovskiy,45.0917,133.5136,20.44,96,100,1.62,RU,1691592888
102,fale old settlement,-9.3852,-171.2468,28.09,78,23,6.26,TK,1691592888
103,santa ana,33.7456,-117.8678,24.43,85,75,1.54,US,1691592888
104,revda,56.801,59.9303,20.34,69,23,1.68,RU,1691592888
105,colac,-38.3333,143.5833,13.43,95,100,3.76,AU,1691592889
106,fuding,27.3273,120.214,25.98,97,80,0.94,CN,1691592889
107,waingapu,-9.6567,120.2641,22.67,85,5,4.04,ID,1691592889
108,afaahiti,-17.75,-149.2833,21.93,73,96,7.06,PF,1691592889
109,tabou,4.423,-7.3528,25.36,81,90,6.02,CI,1691592889
110,paradip garh,20.3167,86.6167,30.22,70,100,4.33,IN,1691592889
111,lesogorsk,56.0458,99.5136,17.35,70,93,1.32,RU,1691592889
112,susuman,62.7833,148.1667,3.03,95,49,0.91,RU,1691592890
113,ballina,-28.8667,153.5667,9.88,85,2,2.46,AU,1691592890
114,port alfred,-33.5906,26.891,18.43,75,80,3.58,ZA,1691592890
115,andahuaylas,-13.6556,-73.3872,13.91,60,86,1.94,PE,1691592890
116,al qusayr,34.5091,36.5798,30.53,45,0,5.11,SY,1691592890
117,box elder,41.5005,-112.8764,19.03,48,14,1.82,US,1691592890
118,grand falls-windsor,48.9332,-55.6649,16.95,72,98,0.89,CA,1691592890
119,bac lieu,9.285,105.7244,27.67,79,1,5.49,VN,1691592891
120,chernyshevskiy,63.0128,112.4714,15.99,92,82,1.97,RU,1691592891
121,aqsay,51.1678,52.995,26.8,37,5,7.26,KZ,1691592891
122,happy valley-goose bay,53.3168,-60.3315,16.17,88,100,2.06,CA,1691592687
123,kerikeri,-35.2268,173.9474,6.89,91,7,1.85,NZ,1691592891
124,constantia,44.1833,28.65,25.39,56,0,5.49,RO,1691592891
125,lamu,-2.2717,40.902,26.12,78,24,6.2,KE,1691592891
126,bonthe,7.5264,-12.505,26.6,82,98,5.72,SL,1691592892
127,kodiak,57.79,-152.4072,11.73,94,100,1.54,US,1691592892
128,wankyi,7.7392,-2.1046,23.54,92,99,4.84,GH,1691592892
129,anadyr,64.75,177.4833,8.28,87,100,5.0,RU,1691592719
130,leava,-14.3,-178.1667,26.89,80,20,3.61,WF,1691592892
131,invercargill,-46.4,168.35,2.23,91,96,1.34,NZ,1691592892
132,luganville,-15.5333,167.1667,20.7,94,100,4.22,VU,1691592892
133,chandler,33.3062,-111.8412,34.48,42,75,5.14,US,1691592892
134,jamestown,42.097,-79.2353,24.14,88,20,3.6,US,1691592733
135,kerema,-7.9631,145.7785,24.09,76,93,4.51,PG,1691592893
136,lata,40.1629,-8.3327,30.83,48,52,4.72,PT,1691592893
137,conception bay south,47.4999,-52.9981,15.8,89,100,1.3,CA,1691592893
138,alice springs,-23.7,133.8833,9.75,53,0,2.06,AU,1691592893
139,puerto lopez,4.0845,-72.956,28.21,74,49,1.33,CO,1691592893
140,melfi,40.9965,15.6514,28.31,18,24,4.76,IT,1691592893
141,magadan,59.5667,150.8,12.45,68,99,4.33,RU,1691592776
142,veinticinco de mayo,-35.4323,-60.1727,15.55,71,57,4.02,AR,1691592894
143,ongjin,37.9347,125.3619,24.09,84,81,3.11,KP,1691592894
144,talcher,20.95,85.2167,29.0,65,81,1.78,IN,1691592780
145,tinde,-3.8833,33.2,30.27,23,17,2.59,TZ,1691592894
146,timbuktu,16.7735,-3.0074,39.05,23,68,3.25,ML,1691592894
147,zaozersk,69.4005,32.4476,23.65,64,8,2.42,RU,1691592894
148,newquay,50.4132,-5.0819,21.95,94,75,4.12,GB,1691592894
149,keflavik,64.0049,-22.5624,16.95,55,75,6.17,IS,1691592894
150,big stone gap,36.8677,-82.7745,23.21,58,26,1.94,US,1691592895
151,acarau,-2.8856,-40.12,28.86,63,74,7.03,BR,1691592895
152,carnarvon,-24.8667,113.6333,20.31,75,82,6.28,AU,1691592895
153,tenno,39.9,139.9667,27.88,78,12,4.81,JP,1691592895
154,kingston,17.997,-76.7936,32.91,69,20,1.03,JM,1691592869
155,kununurra,-15.7667,128.7333,16.99,72,13,0.0,AU,1691592895
156,sokcho,38.2083,128.5911,22.34,94,100,2.57,KR,1691592895
157,tazovsky,67.4667,78.7,9.09,81,100,7.7,RU,1691592895
158,namanga,-2.5433,36.7905,23.71,44,51,4.8,KE,1691592896
159,bilibino,68.0546,166.4372,7.43,60,100,1.87,RU,1691592896
160,tarija,-21.5355,-64.7296,13.95,62,0,0.0,BO,1691592896
161,usogorsk,63.4106,48.6872,25.53,55,7,0.35,RU,1691592896
162,agadez,19.75,10.25,41.29,16,12,4.67,NE,1691592896
163,kapuskasing,49.4169,-82.4331,16.05,94,100,2.06,CA,1691592896
164,nikolayevsk-on-amure,53.1406,140.73,12.73,95,57,1.36,RU,1691592896
165,la ronge,55.1001,-105.2842,14.14,77,75,0.0,CA,1691592764
166,zhongxiang,31.1661,112.5831,26.4,73,45,2.35,CN,1691592897
167,vadso,70.0744,29.7487,28.49,61,20,3.6,NO,1691592700
168,college,64.8569,-147.8028,15.97,94,100,2.57,US,1691592897
169,aripuana,-9.1667,-60.6333,37.52,31,11,0.36,BR,1691592897
170,vernon,50.2581,-119.2691,22.47,52,93,2.24,CA,1691592886
171,broken hill,-31.95,141.4333,12.83,44,0,6.92,AU,1691592897
172,murzuq,25.9155,13.9184,35.8,14,0,6.37,LY,1691592897
173,tocopilla,-22.092,-70.1979,20.56,63,17,3.0,CL,1691592897
174,whitehorse,60.7161,-135.0538,9.43,81,40,2.06,CA,1691592672
175,haimen,23.1935,116.6142,30.94,80,63,5.58,CN,1691592898
176,novo horizonte,-21.4681,-49.2208,31.12,27,1,6.01,BR,1691592898
177,linqiong,30.4159,103.4609,31.9,91,100,0.91,CN,1691592898
178,cabedelo,-6.9811,-34.8339,28.37,71,49,8.27,BR,1691592898
179,obihiro,42.9172,143.2044,22.49,98,65,1.02,JP,1691592898
180,portland,45.5234,-122.6762,20.24,78,75,1.34,US,1691592898
181,nar'yan-mar,67.6713,53.087,19.08,64,41,4.32,RU,1691592898
182,ola,59.5833,151.2833,12.01,67,99,5.18,RU,1691592899
183,lompoc,34.6391,-120.4579,15.51,88,100,1.54,US,1691592899
184,mantenopolis,-18.8625,-41.1228,24.43,57,76,4.15,BR,1691592899
185,kitimat,54.0524,-128.6534,15.51,71,97,3.13,CA,1691592899
186,praia da vitoria,38.7333,-27.0667,28.14,69,20,5.9,PT,1691592779
187,ierapetra,35.01,25.7353,30.64,44,0,6.26,GR,1691592899
188,iskateley,67.6803,53.1512,18.71,65,47,4.27,RU,1691592900
189,luza,60.6308,47.2512,25.21,67,8,1.06,RU,1691592900
190,san antonio de pale,-1.4014,5.6325,23.9,77,100,4.49,GQ,1691592900
191,lebu,-37.6167,-73.65,12.81,78,100,8.22,CL,1691592900
192,roma,43.2128,-75.4557,23.65,79,40,5.14,US,1691592789
193,shimoda,34.6667,138.95,26.17,90,51,4.61,JP,1691592901
194,wynyard,-41.0,145.7167,12.11,87,100,4.91,AU,1691592701
195,ostroleka,53.0862,21.5757,14.16,87,100,4.43,PL,1691592517
196,malango,-2.9627,119.9001,20.1,99,97,0.3,ID,1691592901
197,atafu village,-8.5421,-172.5159,27.92,80,97,5.9,TK,1691592901
198,chonchi,-42.6128,-73.8092,11.18,93,100,4.66,CL,1691592902
199,indramayu,-6.3264,108.32,26.3,73,100,3.79,ID,1691592902
200,valparaiso,-33.0393,-71.6273,15.0,86,100,1.54,CL,1691592902
201,georgetown,5.4112,100.3354,28.96,81,20,1.54,MY,1691592763
202,bridgewater,44.3835,-64.5155,20.06,97,100,5.66,CA,1691592903
203,bozoum,6.3193,16.3799,25.46,79,84,1.67,CF,1691592903
204,salinopolis,-0.6136,-47.3561,29.47,66,4,5.88,BR,1691592903
205,west island,-12.1568,96.8225,24.99,83,40,4.63,CC,1691592904
206,ascension,30.2169,-90.9001,33.0,72,40,3.09,US,1691592904
207,castillos,-34.1667,-53.8333,16.49,71,100,6.93,UY,1691592904
208,vorgashor,67.5833,63.95,12.07,61,98,2.06,RU,1691592737
209,copala,16.65,-98.9833,28.45,75,100,1.35,MX,1691592904
210,karratha,-20.7377,116.8463,21.85,63,0,2.4,AU,1691592904
211,tshabong,-26.05,22.45,24.54,10,2,6.22,BW,1691592905
212,naze,28.3667,129.4833,25.51,90,95,7.6,JP,1691592905
213,galle,6.0367,80.217,26.85,86,100,3.77,LK,1691592905
214,port mathurin,-19.6833,63.4167,23.1,63,59,8.66,MU,1691592905
215,harper,4.375,-7.7169,25.36,80,93,6.18,LR,1691592905
216,sitka,57.0531,-135.33,13.94,88,100,3.6,US,1691592739
217,ilgaz,40.9251,33.6259,28.59,45,15,2.01,TR,1691592906
218,kyshtovka,56.555,76.6271,18.04,69,61,2.04,RU,1691592906
219,el granada,37.5027,-122.4694,17.23,90,100,3.6,US,1691592906
220,dul'durga,50.6761,113.5931,18.22,79,100,1.91,RU,1691592906
221,corner brook,48.9667,-57.9484,16.09,75,100,4.31,CA,1691592906
222,konarka,19.9,86.1167,30.22,73,98,5.19,IN,1691592907
223,port douglas,-16.4833,145.4667,20.95,84,100,7.4,AU,1691592907
224,calama,-22.4667,-68.9333,20.67,7,0,1.22,CL,1691592907
225,beyneu,45.3167,55.2,36.46,19,0,8.0,KZ,1691592907
226,salavan,15.7167,106.4167,24.65,89,63,0.92,LA,1691592907
227,kenora,49.8167,-94.4337,14.54,82,75,3.6,CA,1691592822
228,new norfolk,-42.7826,147.0587,12.72,62,100,2.89,AU,1691592908
229,kolonia town,6.964,158.206,27.44,79,100,3.01,FM,1691592694
230,bryne,58.7354,5.6477,13.46,87,75,7.2,NO,1691592908
231,caleta de carquin,-11.0925,-77.6267,20.43,73,93,2.81,PE,1691592908
232,pangody,65.85,74.4859,11.99,58,72,9.92,RU,1691592908
233,luderitz,-26.6481,15.1594,23.29,43,65,3.54,NA,1691592908
234,errachidia,31.9275,-4.4285,41.03,6,20,2.57,MA,1691592908
235,lensk,60.7253,114.9278,20.57,65,73,1.65,RU,1691592909
236,puerto armuelles,8.2833,-82.8667,27.99,91,45,1.34,PA,1691592909
237,watsa,3.0372,29.5355,21.65,92,79,1.14,CD,1691592909
238,kayangel,8.0823,134.7173,28.1,76,89,7.17,PW,1691592909
239,lagunas,-5.2269,-75.6753,29.61,64,96,1.22,PE,1691592723
240,saint-joseph,-21.3667,55.6167,21.37,80,41,3.16,RE,1691592910
241,midvagur,62.0511,-7.1939,10.46,66,75,10.29,FO,1691592910
242,tofol,5.3248,163.0078,27.43,77,74,3.87,FM,1691592910
243,jayapura,-2.5333,140.7,24.66,88,50,2.09,ID,1691592910
244,brisas barra de suchiate,14.55,-92.2167,28.01,75,88,1.15,MX,1691592910
245,sao vicente,-23.9631,-46.3919,25.71,51,100,3.6,BR,1691592905
246,balqash,46.8481,74.995,24.94,54,0,2.9,KZ,1691592910
247,katsuren-haebaru,26.3369,127.8719,28.43,94,40,5.14,JP,1691592911
248,codrington,-38.2667,141.9667,11.23,87,100,8.45,AU,1691592911
249,haukipudas,65.1765,25.3523,23.41,56,71,1.11,FI,1691592911
250,ankazobe,-18.3167,47.1167,18.01,50,51,2.71,MG,1691592911
251,sierra grande,-41.606,-65.3557,15.37,28,100,9.56,AR,1691592911
252,mudanjiang,44.5833,129.6,19.85,94,100,0.79,CN,1691592911
253,san pedro pochutla,15.7333,-96.4667,28.67,65,100,1.27,MX,1691592912
254,gusinoozyorsk,51.2833,106.5,17.89,92,100,3.25,RU,1691592912
255,namtsy,62.7161,129.6658,12.64,73,11,1.45,RU,1691592912
256,pemba,-12.974,40.5178,26.39,69,40,8.94,MZ,1691592912
257,launceston,-41.45,147.1667,12.31,76,100,7.2,AU,1691592912
258,jiazi,22.8779,116.067,28.91,81,50,6.06,CN,1691592913
259,kupang,-10.1667,123.5833,23.66,76,26,5.44,ID,1691592913
260,alness,57.696,-4.2551,18.81,63,94,1.39,GB,1691592913
261,eyl,7.9803,49.8164,26.63,71,47,11.03,SO,1691592913
262,namdrik,5.5994,168.1028,27.63,78,100,4.89,MH,1691592913
263,kokpekty,48.75,82.4,21.29,56,41,0.72,KZ,1691592913
264,kadoma,34.7333,135.5833,29.54,65,99,4.63,JP,1691592914
265,matagalpa,12.9256,-85.9175,25.45,83,40,3.09,NI,1691592914
266,agat village,13.3886,144.6585,27.52,91,75,4.12,GU,1691592914
267,donghai,22.9459,115.642,28.76,80,26,3.32,CN,1691592914
268,khandyga,62.6667,135.6,12.57,64,6,0.6,RU,1691592914
269,vila franca do campo,37.7167,-25.4333,24.23,85,93,7.75,PT,1691592915
270,sisimiut,66.9395,-53.6735,7.33,71,100,3.2,GL,1691592915
271,amparafaravola,-17.5833,48.2167,18.01,75,47,2.54,MG,1691592915
272,wajir,1.7471,40.0573,30.98,40,100,5.14,KE,1691592915
273,sabang,5.8933,95.3214,28.01,77,98,6.98,ID,1691592915
274,tromso,69.6496,18.957,23.01,43,100,6.17,NO,1691592859
275,meulaboh,4.1363,96.1285,24.13,95,100,0.83,ID,1691592915
276,buckner,38.3837,-85.44,26.53,75,13,0.89,US,1691592916
277,tsiombe,-25.3,45.4833,20.84,80,56,4.53,MG,1691592768
278,fereydun kenar,36.6864,52.5225,30.01,61,0,2.06,IR,1691592916
279,utete,-7.986,38.758,26.57,51,71,4.92,TZ,1691592916
280,igarka,67.4667,86.5833,14.99,95,100,3.76,RU,1691592916
281,nelson bay,-32.7167,152.15,12.83,89,33,2.24,AU,1691592775
282,yuzhno-kurilsk,44.0306,145.8556,19.48,100,100,4.13,RU,1691592917
283,karwar,14.8,74.1333,25.82,85,83,2.18,IN,1691592917
284,kayyerkan,69.3786,87.7439,21.28,60,82,5.11,RU,1691592917
285,oum hadjer,13.2954,19.6966,28.37,67,100,3.39,TD,1691592917
286,arkhangel'sk,64.5401,40.5433,25.03,48,1,2.15,RU,1691592917
287,port macquarie,-31.4333,152.9167,7.16,93,9,3.02,AU,1691592917
288,nantucket,41.2835,-70.0995,25.03,68,100,6.69,US,1691592759
289,mazagao,-0.115,-51.2894,31.03,56,25,3.2,BR,1691592918
290,mount pearl,47.5166,-52.7813,15.47,90,100,2.06,CA,1691592918
291,howrah,22.5892,88.3103,31.0,79,75,0.0,IN,1691592918
292,pacasmayo,-7.4006,-79.5714,22.7,72,99,4.76,PE,1691592918
293,udachny,66.4167,112.4,20.25,39,0,5.72,RU,1691592918
294,crucecita,-28.95,-58.9833,18.87,71,68,2.02,AR,1691592919
295,nova sintra,14.8667,-24.7167,22.87,72,33,5.7,CV,1691592919
296,holualoa,19.6228,-155.9522,23.91,77,100,3.6,US,1691592919
297,porto novo,6.4965,2.6036,27.9,70,65,6.7,BJ,1691592864
298,kavieng,-2.5744,150.7967,27.31,75,91,7.64,PG,1691592728
299,kachkanar,58.7,59.4948,20.79,66,100,0.96,RU,1691592919
300,road town,18.4167,-64.6167,31.02,74,40,4.63,VG,1691592920
301,nemuro,43.3236,145.575,18.97,100,100,6.44,JP,1691592920
302,spearfish,44.4908,-103.8594,22.16,62,0,0.89,US,1691592656
303,boda,4.3189,17.4695,26.35,82,26,2.04,CF,1691592920
304,antsiranana,-12.2787,49.2917,26.42,53,20,5.14,MG,1691592920
305,ta`u,-14.2336,-169.5144,26.82,75,8,4.85,AS,1691592740
306,posse,-14.0931,-46.3694,31.13,25,1,4.15,BR,1691592920
307,sindirgi,39.2413,28.1784,24.19,52,1,7.36,TR,1691592921
308,bantogon,6.5333,124.0333,26.03,81,100,1.23,PH,1691592921
309,zhangjiakou,40.81,114.8794,23.3,87,12,2.01,CN,1691592717
310,qarqaraly,49.4058,75.4742,19.91,66,71,2.43,KZ,1691592921
311,salym,60.0625,71.4789,13.33,90,100,1.92,RU,1691592921
312,kyzyl-suu,42.3414,78.0056,18.22,52,1,2.13,KG,1691592921
313,san felice circeo,41.2372,13.0942,29.14,63,89,6.66,IT,1691592921
314,oyem,1.5995,11.5793,24.03,86,80,1.15,GA,1691592922
315,navirai,-23.065,-54.1906,25.84,46,2,3.58,BR,1691592922
316,hasaki,35.7333,140.8333,27.39,89,0,6.11,JP,1691592922
317,st. john's,47.5649,-52.7093,14.32,90,100,2.06,CA,1691592718
318,aberdeen,57.1437,-2.0981,18.7,58,75,2.06,GB,1691592922
319,carutapera,-1.195,-46.02,30.76,58,20,4.59,BR,1691592774
320,mejit,10.2753,170.8646,27.91,71,79,4.84,MH,1691592923
321,kangding,30.0513,101.9603,17.78,98,99,1.29,CN,1691592923
322,kothi,24.75,80.7833,28.05,67,100,3.88,IN,1691592923
323,mulayjah,27.271,48.4242,41.66,9,0,1.94,SA,1691592923
324,kralendijk,12.15,-68.2667,30.99,74,20,7.2,BQ,1691592924
325,mao,39.8885,4.2658,28.31,61,20,4.63,ES,1691592924
326,uige,-7.6087,15.0613,33.97,19,2,2.15,AO,1691592924
327,manokwari,-0.8667,134.0833,26.17,78,100,1.61,ID,1691592924
328,isangel,-19.55,169.2667,19.66,75,80,5.47,VU,1691592924
329,ust-nera,64.5667,143.2,12.66,76,40,1.85,RU,1691592925
330,pathein,16.7833,94.7333,24.54,94,100,1.6,MM,1691592925
331,chulakkurgan,43.765,69.1814,30.84,27,30,2.94,KZ,1691592925
332,khash,28.2211,61.2158,32.78,13,51,7.63,IR,1691592853
333,taroa,8.7058,171.2275,27.33,79,39,4.08,MH,1691592925
334,korla,41.7597,86.1469,31.92,21,0,2.72,CN,1691592925
335,majie,25.0333,102.6361,19.99,88,40,2.0,CN,1691592925
336,mae sai,20.4335,99.8762,22.58,99,100,0.43,TH,1691592926
337,itoman,26.1247,127.6694,28.43,98,40,5.14,JP,1691592926
338,al fallujah,33.3538,43.7795,46.94,6,0,2.42,IQ,1691592926
339,vilyuchinsk,52.9306,158.4028,14.15,76,100,4.64,RU,1691592926
340,micheweni,-4.9667,39.8333,25.24,76,34,6.3,TZ,1691592926
341,kamyzyak,46.11,48.0736,36.99,28,75,3.0,RU,1691592926
342,qamdo,31.1667,97.2333,9.11,68,49,0.87,CN,1691592926
343,gadzhiyevo,69.2551,33.3362,24.45,57,2,2.0,RU,1691592927
344,nova kakhovka,46.7545,33.3486,28.3,28,19,6.23,UA,1691592927
345,ciudad lazaro cardenas,17.9583,-102.2,29.51,75,53,1.26,MX,1691592927
346,oshakati,-17.7833,15.6833,29.7,13,5,0.88,NA,1691592927
347,ad dabbah,18.05,30.95,40.06,23,26,1.25,SD,1691592927
348,fortuna,40.5982,-124.1573,16.31,95,100,0.0,US,1691592927
349,tralee,52.2704,-9.7026,24.14,57,20,4.63,IE,1691592923
350,baotou,40.6522,109.8222,29.78,32,100,3.51,CN,1691592928
351,tera,14.0078,0.7531,30.2,56,92,3.79,NE,1691592928
352,chahuites,16.2833,-94.1833,28.71,75,92,1.25,MX,1691592928
353,tamandare,-8.7597,-35.1047,27.09,59,22,4.89,BR,1691592799
354,zakynthos,37.7914,20.8953,29.68,58,20,5.14,GR,1691592854
355,ghat,24.9647,10.1728,38.17,12,0,8.14,LY,1691592928
356,tezu,27.9167,96.1667,25.71,97,93,1.29,IN,1691592929
357,walvis bay,-22.9575,14.5053,17.53,72,0,3.09,NA,1691592929
358,pathardi,19.1667,75.1833,26.24,67,100,5.22,IN,1691592929
359,dom pedrito,-30.9828,-54.6731,14.96,88,100,2.18,BR,1691592929
360,saldanha,-33.0117,17.9442,25.03,74,0,4.84,ZA,1691592754
361,saint-philippe,-21.3585,55.7679,21.77,78,38,3.71,RE,1691592929
362,mweka,-4.85,21.5667,33.54,28,77,0.8,CD,1691592929
363,lihue,21.9789,-159.3672,26.77,75,100,8.75,US,1691592930
364,pimentel,-6.8367,-79.9342,23.16,78,100,1.03,PE,1691592930
365,el jadid,33.2549,-8.506,24.52,81,11,8.36,MA,1691592930
366,horta,38.5333,-28.6333,25.8,84,20,6.17,PT,1691592930
367,amacuzac,18.5833,-99.35,24.87,75,100,0.24,MX,1691592930
368,ardestan,33.3761,52.3694,32.97,19,4,6.82,IR,1691592930
369,toliara,-23.35,43.6667,22.88,77,0,9.28,MG,1691592931
370,bacsalmas,46.1265,19.3326,24.41,35,100,1.19,HU,1691592931
371,rovaniemi,66.5,25.7167,17.67,94,100,1.54,FI,1691592931
372,hithadhoo,-0.6,73.0833,27.85,71,63,0.86,MV,1691592931
373,tonota,-21.4833,27.4833,20.61,22,0,7.5,BW,1691592931
374,coria,39.9879,-6.5377,36.92,18,59,4.84,ES,1691592932
375,talara,-4.5772,-81.2719,24.42,73,0,4.43,PE,1691592932
376,kargasok,59.0556,80.8572,16.14,71,94,2.72,RU,1691592756
377,kroya,-7.6331,109.2461,22.97,87,100,2.95,ID,1691592932
378,chinde,26.8418,88.0763,19.16,96,97,0.94,NP,1691592932
379,la paz,-16.5,-68.15,13.1,33,20,4.12,BO,1691592860
380,berezovyy,51.6667,135.7,13.93,84,70,1.46,RU,1691592932
381,chirilagua,13.2203,-88.1386,27.86,54,8,0.87,SV,1691592933
382,san patricio,28.017,-97.5169,32.32,54,1,8.06,US,1691592933
383,orita eruwa,7.55,3.4333,25.46,86,96,4.15,NG,1691592933
384,valentin gomez farias,28.2167,-106.5833,25.61,37,2,1.97,MX,1691592933
385,tidjikja,18.5564,-11.4271,41.09,14,14,3.85,MR,1691592933
386,jerome,42.7241,-114.5186,19.13,59,40,5.14,US,1691592933
387,badger,64.8,-147.5333,15.93,95,75,2.57,US,1691592934
388,sonoita,31.85,-112.8333,29.49,48,14,4.05,MX,1691592934
389,punta alta,-38.8759,-62.0736,15.6,43,100,5.9,AR,1691592934
390,tyukhtet,56.5389,89.3011,15.37,87,37,1.86,RU,1691592934
391,cave spring,37.2276,-80.0128,26.06,69,40,4.63,US,1691592934
392,hamilton,39.1834,-84.5333,26.54,77,0,2.57,US,1691592875
393,brisas de zicatela,15.8369,-97.0419,29.15,70,100,1.46,MX,1691592935
394,sishui,35.6489,117.2758,24.77,80,29,1.76,CN,1691592935
395,presidente prudente,-22.1256,-51.3889,23.75,53,0,6.17,BR,1691592935
396,alofi,-19.0595,-169.9187,24.94,94,26,2.06,NU,1691592935
397,anna regina,7.2644,-58.5077,29.8,67,31,4.34,GY,1691592935
398,kharkhorin,47.1975,102.8238,16.16,90,79,2.47,MN,1691592935
399,palmer,42.1584,-72.3287,25.04,59,75,4.63,US,1691592721
400,puerto santa,-8.9906,-78.6456,21.13,76,88,2.96,PE,1691592936
401,qingnian,36.8456,115.7117,25.65,80,57,2.53,CN,1691592936
402,fort st. john,56.2499,-120.8529,13.94,94,75,2.06,CA,1691592936
403,deqen,29.9618,90.7188,14.77,61,36,1.6,CN,1691592936
404,ulladulla,-35.35,150.4667,11.95,67,87,3.45,AU,1691592936
405,fiche,9.8,38.7333,12.52,90,100,0.9,ET,1691592936
406,utrik,11.2278,169.8474,28.06,74,33,5.44,MH,1691592936
407,bandar-e lengeh,26.5579,54.8807,38.06,47,0,3.09,IR,1691592936
408,molde,62.7375,7.1591,14.28,88,75,5.66,NO,1691592937
409,sovetskaya gavan',48.9723,140.2878,14.93,76,100,1.28,RU,1691592937
410,rikaze,29.25,88.8833,19.46,45,61,2.22,CN,1691592937
411,ikang,4.7898,8.5316,27.94,71,83,3.9,NG,1691592937
412,asha,54.9973,57.2722,21.86,67,81,1.27,RU,1691592937
413,esquipulas,14.5667,-89.35,25.23,83,40,0.0,GT,1691592937
414,houghton,47.1219,-88.569,21.17,85,75,5.66,US,1691592901
415,bafra,41.5678,35.9069,25.07,62,56,4.19,TR,1691592938
416,remire-montjoly,4.9167,-52.2667,32.02,58,40,3.6,GF,1691592938
417,tuban,-6.8976,112.0649,24.86,77,85,3.34,ID,1691592938
418,saint-hilaire-de-talmont,46.47,-1.6036,29.01,41,0,1.01,FR,1691592938
419,port lincoln,-34.7333,135.8667,11.88,70,7,6.12,AU,1691592938
420,baker city,44.7749,-117.8344,19.8,94,0,0.0,US,1691592848
421,keren,15.7778,38.4581,24.97,64,78,2.54,ER,1691592938
422,san fernando de apure,7.8878,-67.4724,29.2,78,98,1.31,VE,1691592939
423,san luis de la loma,17.2706,-100.8939,28.4,80,89,1.67,MX,1691592939
424,middelburg,-25.7751,29.4648,16.57,36,9,6.67,ZA,1691592939
425,anori,-3.7728,-61.6442,35.8,36,7,1.73,BR,1691592939
426,ramos arizpe,25.55,-100.9667,29.42,42,0,3.09,MX,1691592939
427,novyy urgal,51.0736,132.5642,14.85,79,94,0.77,RU,1691592939
428,jining,35.405,116.5814,25.45,77,29,2.49,CN,1691592939
429,ixtapa,20.7,-105.2,30.68,79,40,1.34,MX,1691592910
430,sao tome,0.3365,6.7273,24.83,81,64,4.82,ST,1691592940
431,chibougamau,49.9168,-74.3659,15.79,72,0,2.57,CA,1691592940
432,mossendjo,-2.9506,12.7261,30.6,42,35,2.08,CG,1691592940
433,faya-largeau,17.9257,19.1043,36.94,36,0,3.09,TD,1691592940
434,luena,-11.7833,19.9167,29.54,16,2,3.03,AO,1691592940
435,cayambe,0.05,-78.1333,11.59,85,100,2.58,EC,1691592940
436,okakarara,-20.5833,17.4333,25.7,18,86,4.01,NA,1691592941
437,carbondale,37.7273,-89.2168,25.03,89,20,3.6,US,1691592941
438,kailua-kona,19.6406,-155.9956,25.98,77,100,3.6,US,1691592941
439,seven pagodas,12.6264,80.1722,31.03,75,100,4.57,IN,1691592941
440,kamloops,50.6665,-120.3192,16.55,91,100,0.0,CA,1691592941
441,huron,41.1501,-82.5499,25.41,79,2,3.74,US,1691592941
442,lahat,-3.8,103.5333,23.86,80,100,1.38,ID,1691592941
443,cabo san lucas,22.8909,-109.9124,32.81,64,11,5.84,MX,1691592828
444,rasht,37.2808,49.5832,30.9,74,20,3.09,IR,1691592942
445,igrim,63.1906,64.4162,16.42,55,92,2.22,RU,1691592734
446,ribeira brava,32.65,-17.0667,28.89,77,1,0.8,PT,1691592942
447,camabatela,-8.1881,15.375,31.6,18,6,0.81,AO,1691592942
448,port blair,11.6667,92.75,28.02,83,75,5.14,IN,1691592942
449,ibshaway,29.358,30.6814,37.31,19,0,4.54,EG,1691592942
450,gamba,-2.65,10.0,24.94,69,13,4.43,GA,1691592864
451,callao,-12.0667,-77.15,22.62,73,100,2.57,PE,1691592804
452,flin flon,54.7682,-101.865,11.91,71,20,3.09,CA,1691592943
453,karaisali,37.2567,35.0589,31.65,55,0,3.65,TR,1691592943
454,thinadhoo,0.5333,72.9333,27.58,74,40,2.04,MV,1691592943
455,kinablangan,7.6947,126.5503,26.38,84,100,2.31,PH,1691592943
456,la passe,45.5549,-0.8967,32.13,24,0,2.52,FR,1691592944
457,quellon,-43.1167,-73.6167,12.14,94,100,8.23,CL,1691592944
458,maulavi bazar,24.4833,91.7833,25.63,96,100,2.73,BD,1691592944
459,el haouaria,37.05,11.0144,28.01,41,0,4.03,TN,1691592944
460,northwest harborcreek,42.1494,-79.9946,25.29,78,0,3.6,US,1691592944
461,nagqu,31.5,92.0,9.95,68,88,1.5,CN,1691592944
462,atbasar,51.8,68.3333,20.58,63,100,4.26,KZ,1691592945
463,tabuk,17.4189,121.4443,25.14,85,100,1.41,PH,1691592945
464,shush,32.1942,48.2436,46.21,8,0,2.1,IR,1691592945
465,necochea,-38.5473,-58.7368,12.24,68,100,6.63,AR,1691592946
466,wainwright,52.839,-110.8572,12.22,81,100,4.72,CA,1691592946
467,kikwit,-5.041,18.8162,34.25,28,94,3.4,CD,1691592946
468,columbia,34.0007,-81.0348,30.42,62,0,1.54,US,1691592920
469,rongelap,11.1635,166.8941,27.59,78,60,2.89,MH,1691592947
470,al hawatah,13.4167,34.6333,31.22,54,64,3.11,SD,1691592947
471,mohr,54.3528,9.7167,18.99,64,20,9.77,DE,1691592947
472,nicoya,10.1483,-85.452,28.36,72,73,2.24,CR,1691592947
473,palikir - national government center,6.9248,158.1611,26.91,78,100,3.23,FM,1691592947
474,ulsteinvik,62.3432,5.8487,14.39,89,100,7.15,NO,1691592947
475,grantsville,40.5999,-112.4644,23.09,44,0,2.57,US,1691592948
476,kavaratti,10.5669,72.642,28.01,78,100,7.59,IN,1691592948
477,nebbi,2.4783,31.0889,26.91,56,21,2.34,UG,1691592948
478,port-cartier,50.0334,-66.8654,15.12,98,100,5.94,CA,1691592948
479,salalah,17.0151,54.0924,27.05,89,100,4.63,OM,1691592948
480,sodankyla,67.4167,26.6,19.19,90,88,1.08,FI,1691592948
481,ilave,-16.0833,-69.6667,12.4,31,3,2.2,PE,1691592949
482,higuera de zaragoza,25.95,-109.2833,28.96,59,74,1.47,MX,1691592949
483,balabac,7.9868,117.0645,28.21,77,12,4.6,PH,1691592949
484,chom thong,18.4174,98.6743,26.14,96,100,1.56,TH,1691592949
485,san rafael,-34.6177,-68.3301,17.41,21,100,3.39,AR,1691592870
486,lubang,13.8584,120.124,28.49,81,55,5.26,PH,1691592949
487,romanovka,51.7443,42.7527,28.52,47,2,2.88,RU,1691592949
488,okha,53.5739,142.9478,11.59,95,14,1.98,RU,1691592950
489,salamanca,40.8333,-6.0,36.88,17,48,8.61,ES,1691592950
490,khutar,28.2,80.2833,27.31,83,100,1.48,IN,1691592950
491,wanning,18.8003,110.3967,27.86,77,100,3.61,CN,1691592950
492,bishkul,54.7803,69.1033,25.03,35,98,3.29,KZ,1691592950
493,soio,-6.1349,12.3689,24.2,75,39,5.29,AO,1691592950
494,papao,-17.75,-149.55,22.82,74,91,7.47,PF,1691592950
495,homer,59.6425,-151.5483,13.93,87,100,0.0,US,1691592951
496,kencong,-8.2833,113.3667,21.52,91,98,0.96,ID,1691592951
497,rouissat,31.9243,5.3502,43.04,10,0,0.0,DZ,1691592951
498,riohacha,11.5444,-72.9072,32.06,66,20,4.12,CO,1691592951
499,tuchkovo,55.6011,36.4681,22.89,76,37,3.24,RU,1691592951
500,sakata,38.9167,139.855,26.78,87,12,5.99,JP,1691592951
501,zaraza,9.3503,-65.3245,31.94,58,12,2.45,VE,1691592951
502,verkhotur'ye,58.8627,60.8054,21.46,71,100,0.6,RU,1691592952
503,labuan,5.2767,115.2417,26.2,89,20,0.0,MY,1691592952
504,al fuwayliq,26.4432,43.2534,39.76,8,0,3.56,SA,1691592952
505,alenquer,-1.9417,-54.7383,33.86,45,4,2.61,BR,1691592952
506,santa marta,11.2408,-74.199,29.03,84,20,4.12,CO,1691592672
507,sorong,-0.8833,131.25,25.97,84,93,6.52,ID,1691592781
508,chimore,-16.9833,-65.1333,32.12,38,0,1.39,BO,1691592952
509,santa cruz,-17.8,-63.1667,26.03,36,0,6.17,BO,1691592952
510,laredo,27.5064,-99.5075,29.16,70,20,6.69,US,1691592681
511,vitorino freire,-4.0667,-45.1667,35.52,35,6,2.77,BR,1691592953
512,susa,35.8254,10.637,29.88,54,0,6.69,TN,1691592953
513,minas de marcona,-15.2119,-75.1103,16.53,66,21,4.45,PE,1691592953
514,abepura,-2.6333,140.5833,24.45,88,20,1.03,ID,1691592953
515,villa hernandarias,-31.231,-59.985,16.81,54,5,2.6,AR,1691592953
516,gisborne,-38.6533,178.0042,5.64,84,27,4.14,NZ,1691592953
517,lazaro cardenas,17.9583,-102.2,29.51,75,53,1.26,MX,1691592927
518,mariestad,58.7097,13.8237,13.06,97,100,5.11,SE,1691592954
519,guaiba,-30.1139,-51.325,17.92,79,100,6.17,BR,1691592954
520,karachi,24.9056,67.0822,27.9,78,75,7.2,PK,1691592889
521,cambria,35.5641,-121.0808,14.3,96,16,0.66,US,1691592954
522,manismata,-2.4667,111.0333,22.96,88,52,1.48,ID,1691592954
523,qa'en,33.7265,59.1844,28.39,19,11,8.44,IR,1691592954
524,acapulco de juarez,16.8634,-99.8901,28.11,79,100,1.96,MX,1691592954
525,mayo-belwa,9.05,12.05,32.44,66,100,2.63,NG,1691592954
526,dhidhdhoo,6.8833,73.1,28.12,78,100,7.99,MV,1691592677
527,loen,7.7601,168.2307,27.3,77,95,2.63,MH,1691592955
528,north bend,43.4065,-124.2243,17.31,94,100,1.54,US,1691592670
529,gola gokarannath,28.0833,80.4667,26.93,85,100,1.15,IN,1691592955
530,vanino,49.0869,140.2543,14.59,76,100,1.24,RU,1691592955
531,viedma,-40.8135,-62.9967,15.13,34,94,8.95,AR,1691592955
532,posto fiscal rolim de moura,-13.0833,-62.2667,35.82,29,7,1.36,BR,1691592955
533,juli,-16.2167,-69.45,10.09,34,3,2.22,PE,1691592955
534,tuba city,36.135,-111.2399,21.88,25,47,0.89,US,1691592955
535,muromtsevo,56.3724,75.2418,18.86,64,31,0.96,RU,1691592956
536,strelka,58.0728,93.0344,14.87,88,4,0.93,RU,1691592956
537,bayganin,48.6947,55.8742,28.98,27,4,6.63,KZ,1691592712
538,el fasher,13.6279,25.3494,30.92,44,56,5.22,SD,1691592956
539,dubbo,-32.25,148.6167,7.07,76,69,2.06,AU,1691592956
540,taghazout,30.5426,-9.7112,31.43,45,10,4.22,MA,1691592956
541,sokoni,-6.4333,39.55,24.79,81,23,8.65,TZ,1691592957
542,mednogorsk,51.4128,57.595,19.36,68,85,6.36,RU,1691592957
543,trairi,-3.2778,-39.2689,30.12,57,43,6.93,BR,1691592745
544,upington,-28.4478,21.2561,29.21,10,0,3.09,ZA,1691592957
545,eseka,3.65,10.7667,24.49,93,90,1.91,CM,1691592957
546,kuqa,41.7278,82.9364,26.06,35,28,13.67,CN,1691592957
547,cova figueira,14.8905,-24.2934,23.24,74,8,3.94,CV,1691592957
548,hami,42.8,93.45,31.85,21,33,5.34,CN,1691592957
549,mili,6.0815,171.735,27.94,72,100,1.58,MH,1691592703
550,plastun,44.7561,136.2939,16.35,98,100,1.26,RU,1691592958
551,ca mau,9.1769,105.15,27.12,81,4,2.08,VN,1691592958
552,kenai,60.5544,-151.2583,11.75,98,100,2.06,US,1691592958
553,preobrazheniye,42.9019,133.9064,18.78,97,100,4.84,RU,1691592958
554,hotan,37.0997,79.9269,31.07,25,33,3.01,CN,1691592958
555,bengkulu,-3.8004,102.2655,25.37,89,73,2.85,ID,1691592958
556,saint-francois,46.4154,3.9054,28.15,32,0,3.6,FR,1691592958
557,collinsville,38.6703,-89.9846,24.23,92,20,2.57,US,1691592959
558,levuka,50.1834,-105.4011,11.9,94,100,2.57,CA,1691592959
559,mount pleasant,32.7941,-79.8626,31.21,66,0,4.63,US,1691592786
560,cockburn town,21.4612,-71.1419,28.95,81,48,7.43,TC,1691592959
561,guerrero negro,27.9769,-114.0611,23.6,74,7,5.17,MX,1691592693
562,al kut,32.5147,45.819,46.88,7,0,3.23,IQ,1691592959
563,miquelon,47.0975,-56.3814,17.0,79,100,10.51,PM,1691592959
564,bikenibeu village,1.3673,173.1241,25.98,89,40,0.0,KI,1691592959
565,whakatane,-37.9585,176.9854,3.21,99,23,1.16,NZ,1691592959
566,el gouna,27.3942,33.6782,39.05,36,0,7.1,EG,1691592960
